,City,Cloudiness,Country,Date,Humidity,Lat,Lng,Max Temp,Wind Speed
0,severo-kurilsk,94,RU,1608520676,92,50.68,156.12,28.13,21.14
1,kirakira,17,SB,1608520676,66,-10.45,161.92,84.13,4.85
2,albany,77,US,1608520676,74,42.6,-73.97,34.0,3.29
3,castro,95,BR,1608520676,94,-24.79,-50.01,66.54,2.55
4,hilo,90,US,1608520676,88,19.73,-155.09,75.2,3.36
5,palmer,90,US,1608520653,100,42.16,-72.33,32.0,4.03
6,punta arenas,4,PH,1608520677,63,8.99,125.34,87.04,9.19
7,rolla,1,US,1608520585,69,37.95,-91.77,42.01,8.05
8,marawi,14,PH,1608520677,78,8.0,124.29,82.99,4.0
9,pevek,44,RU,1608520677,87,69.7,170.31,-9.08,3.27
10,chuy,0,UY,1608520677,78,-33.7,-53.46,57.4,8.99
11,bredasdorp,0,ZA,1608520677,93,-34.53,20.04,64.4,5.82
12,zapolyarnyy,97,RU,1608520677,96,69.42,30.81,32.0,36.91
13,hambantota,90,LK,1608520677,100,6.12,81.12,75.2,9.17
14,makakilo city,20,US,1608520677,54,21.35,-158.09,84.2,6.93
15,rikitea,2,PF,1608520677,77,-23.12,-134.97,76.69,21.07
16,thompson,75,CA,1608520677,82,55.74,-97.86,-16.6,2.24
17,vaini,20,TO,1608520677,79,-21.2,-175.2,84.2,14.99
18,mataura,100,NZ,1608520678,80,-46.19,168.86,59.0,8.01
19,kapaa,40,US,1608520678,74,22.08,-159.32,80.6,18.34
20,ushuaia,40,AR,1608520502,56,-54.8,-68.3,44.6,33.33
21,longyearbyen,75,SJ,1608520678,60,78.22,15.64,10.4,21.92
22,hualmay,100,PE,1608520678,84,-11.1,-77.61,68.65,9.33
23,kaitangata,100,NZ,1608520678,92,-46.28,169.85,55.99,23.0
24,sidney,75,AU,1608520447,78,-33.87,151.21,73.4,12.75
25,ribeira grande,75,ES,1608520678,93,42.75,-8.44,57.99,11.41
26,belaya gora,0,UA,1608520678,95,49.03,25.77,33.01,5.99
27,puerto ayora,0,ES,1608520678,93,36.59,-6.23,51.8,6.93
28,khatanga,100,RU,1608520678,84,71.97,102.5,-32.55,6.15
29,cape town,0,CL,1608520678,45,-36.41,-71.9,66.2,10.29
30,mandan,20,US,1608520550,67,46.83,-100.89,41.0,20.8
31,yellowknife,90,CA,1608520678,75,62.46,-114.35,-16.01,8.05
32,aklavik,99,CA,1608520678,73,68.22,-135.01,-32.8,3.36
33,bluff,100,NZ,1608520679,80,-46.6,168.33,59.0,8.01
34,tuktoyaktuk,20,CA,1608520679,65,69.45,-133.04,-36.4,4.7
35,namangan,90,UZ,1608520679,86,41.0,71.67,33.8,2.24
36,belmonte,0,BR,1608520679,88,-15.86,-38.88,75.2,3.36
37,laguna,1,US,1608520679,81,38.42,-121.42,48.2,1.21
38,acapulco,40,MX,1608520679,88,16.86,-99.89,77.0,3.36
39,hithadhoo,28,MV,1608520679,76,-0.6,73.08,81.57,9.17
40,tasiilaq,100,GL,1608520679,57,65.61,-37.64,23.0,6.85
41,liverpool,62,GB,1608520647,87,53.41,-2.98,42.8,6.93
42,leningradskiy,100,RU,1608520679,91,69.38,178.42,-3.53,0.81
43,jibuti,75,DJ,1608520487,88,11.5,42.5,75.2,14.14
44,vila franca do campo,100,PT,1608520679,95,42.03,-8.16,53.01,5.99
45,busselton,0,AU,1608520679,43,-33.65,115.33,73.99,7.0
46,qaqortoq,100,GL,1608520679,68,60.72,-46.03,26.6,12.75
47,rocha,9,UY,1608520679,89,-34.48,-54.33,55.22,8.72
48,basoko,0,CD,1608520679,81,1.24,23.62,70.7,1.79
49,mogadishu,8,SO,1608520680,86,2.04,45.34,77.94,14.88
50,san vicente de canete,31,ML,1608520680,25,13.3,-4.9,68.45,13.11
51,newark,90,US,1608520457,93,40.74,-74.17,39.2,1.45
52,eureka,100,US,1608520680,90,40.8,-124.16,52.0,3.31
53,sao filipe,0,IN,1608520637,28,20.51,76.21,63.81,3.09
54,nikolskoye,90,RU,1608520680,94,59.7,30.79,32.0,6.71
55,kunya,0,NG,1608520680,59,12.22,8.53,64.4,3.36
56,georgetown,20,MY,1608520488,74,5.41,100.34,84.2,9.17
57,namibe,72,AO,1608520680,84,-15.2,12.15,66.43,2.89
58,gympie,59,AU,1608520680,76,-26.19,152.66,82.0,4.0
59,atlantic beach,90,US,1608520665,100,39.47,-74.67,33.8,0.43
60,jamestown,90,US,1608520680,92,42.1,-79.24,35.01,6.93
61,bambous virieux,40,MU,1608520680,78,-20.26,57.41,80.01,11.41
62,mar del plata,75,ES,1608520680,67,43.4,-4.01,60.01,12.75
63,yuci,0,CN,1608520680,53,37.68,112.73,24.8,2.24
64,mount gambier,99,GB,1608520681,93,53.66,-1.85,41.0,1.01
65,cidreira,91,BR,1608520681,70,-30.18,-50.21,68.43,5.26
66,butaritari,45,KI,1608520681,81,3.07,172.79,81.36,13.87
67,saint-philippe,0,RE,1608520681,65,-21.36,55.77,79.0,2.24
68,okhotsk,97,RU,1608520681,90,59.38,143.3,-9.99,8.84
69,new norfolk,23,LR,1608520681,95,6.65,-10.59,73.29,1.32
70,grand river south east,1,US,1608520681,92,38.88,-109.5,21.2,3.36
71,baykit,100,RU,1608520681,85,61.67,96.37,-11.4,2.66
72,lorengau,77,PG,1608520681,72,-2.02,147.27,85.05,4.92
73,ballina,75,AU,1608520478,74,-28.87,153.57,82.4,4.7
74,jiguani,20,CU,1608520682,88,20.37,-76.43,75.2,8.05
75,hamilton,1,US,1608520667,84,39.18,-84.53,37.0,4.65
76,naze,75,JP,1608520682,59,28.37,129.48,60.8,13.87
77,paamiut,100,GL,1608520682,96,61.99,-49.67,27.66,12.21
78,iskateley,95,RU,1608520682,93,67.68,53.15,4.93,11.03
79,cape canaveral,0,CL,1608520678,45,-36.41,-71.9,66.2,10.29
80,sitka,75,US,1608520439,70,57.05,-135.33,42.8,16.11
81,port elizabeth,95,CD,1608520683,72,-7.03,29.76,70.56,3.94
82,bethel,90,US,1608520683,99,41.37,-73.41,33.01,2.51
83,kruisfontein,84,ZA,1608520683,95,-34.0,24.73,70.0,1.01
84,verkhoyansk,93,RU,1608520683,78,67.54,133.38,-43.1,0.38
85,namwala,97,ZM,1608520683,93,-15.75,26.44,66.02,0.45
86,pangnirtung,100,CA,1608520683,88,66.15,-65.71,3.2,1.54
87,havelock,90,US,1608520683,100,34.88,-76.9,46.99,9.17
88,srednekolymsk,9,RU,1608520683,82,67.45,153.68,-37.77,2.66
89,ancud,75,CL,1608520442,81,-41.87,-73.82,53.01,3.36
90,sterling,90,US,1608520541,100,39.01,-77.43,37.0,2.26
91,qaanaaq,92,GL,1608520683,71,77.48,-69.36,1.02,4.68
92,lebu,0,CL,1608520683,85,-37.62,-73.65,53.55,19.8
93,port alfred,95,CD,1608520683,72,-7.03,29.76,70.56,3.94
94,arraial do cabo,0,BR,1608520684,78,-22.84,-46.65,75.2,9.17
95,port lincoln,32,CD,1608520684,74,-7.03,29.76,70.12,5.23
96,avarua,50,CK,1608520684,65,-21.21,-159.78,80.6,5.82
97,cumana,38,VE,1608520684,81,10.46,-64.18,78.19,9.82
98,shenzhen,96,CN,1608520596,59,22.55,114.07,62.01,10.0
99,kloulklubed,75,PW,1608520684,74,7.04,134.26,86.0,13.87
100,lasa,75,IT,1608520684,75,46.62,10.7,39.0,3.36
101,bom jesus,0,ML,1608520684,29,14.95,-2.93,63.37,6.69
102,lyndon,1,US,1608520684,80,38.26,-85.6,37.99,5.82
103,grand-santi,85,GF,1608520684,95,4.25,-54.38,73.06,2.55
104,yugorsk,0,RU,1608520684,93,61.31,63.33,4.06,5.77
105,katsuura,20,JP,1608520628,25,35.13,140.3,50.0,3.36
106,berdigestyakh,100,RU,1608520685,84,62.1,126.7,-26.41,1.19
107,barrow,1,US,1608520685,68,71.29,-156.79,-20.2,9.17
108,baffa,10,PK,1608520685,55,34.44,73.22,50.02,5.55
109,ostrovnoy,100,RU,1608520685,90,68.05,39.51,36.09,19.01
110,samarai,5,PG,1608520685,71,-10.62,150.67,84.16,2.55
111,vardo,100,NO,1608520685,90,70.37,31.11,38.66,18.39
112,berlevag,100,NO,1608520685,90,70.86,29.09,40.96,23.96
113,tilichiki,27,RU,1608520686,90,60.47,166.1,-14.31,13.29
114,nisia floresta,100,GR,1608520686,88,39.39,21.64,39.99,11.99
115,letka,100,RU,1608520686,97,59.6,49.42,20.89,10.98
116,nakamura,4,JP,1608520686,49,32.98,132.93,49.59,8.05
117,kodiak,1,US,1608520592,54,57.79,-152.41,30.2,20.8
118,cine,75,TR,1608520687,93,37.61,28.06,48.2,0.81
119,filadelfia,90,US,1608520601,93,39.95,-75.16,37.0,0.87
120,shimoda,40,JP,1608520687,53,34.67,138.95,50.0,5.82
121,torbay,20,CA,1608520687,92,47.67,-52.73,23.0,3.36
122,mildura,90,AU,1608520622,68,-34.2,142.15,64.4,5.82
123,dillon,90,US,1608520687,100,34.42,-79.37,46.99,4.7
124,miri,40,MY,1608520687,83,4.41,114.01,84.2,10.29
125,constitucion,0,CL,1608520556,62,-35.33,-72.42,59.07,13.04
126,cadillac,90,US,1608520687,98,44.25,-85.4,32.0,11.41
127,moura,20,PT,1608520687,100,38.14,-7.45,46.4,2.24
128,itarema,0,BR,1608520687,78,-2.92,-39.92,79.2,13.87
129,mys shmidta,100,RU,1608520687,97,62.06,48.62,24.08,4.79
130,atuona,1,PF,1608520687,77,-9.8,-139.03,78.44,15.41
131,hermanus,12,ZA,1608520687,89,-34.42,19.23,64.99,9.51
132,payo,95,ID,1608520687,71,-3.75,103.64,82.35,4.63
133,manaure,88,CO,1608520688,78,11.78,-72.44,79.81,16.84
134,gurgentepe,75,TR,1608520688,81,40.79,37.6,50.0,9.17
135,ahipara,100,NZ,1608520688,57,-35.17,173.17,73.45,5.08
136,hami,0,CN,1608520688,86,42.8,93.45,21.29,0.92
137,ayan,100,RU,1608520688,82,56.45,138.17,7.57,3.87
138,bull savanna,17,LR,1608520688,91,6.2,-10.28,75.33,0.58
139,porangatu,98,BR,1608520688,77,-13.44,-49.15,74.77,3.4
140,balkanabat,0,TM,1608520688,82,39.51,54.37,35.55,2.89
141,vostok,100,RU,1608520688,94,46.49,135.88,4.57,5.12
142,meulaboh,60,ID,1608520688,73,4.14,96.13,82.9,2.15
143,tankhoy,100,RU,1608520689,91,51.55,105.13,24.6,5.66
144,kharp,7,RU,1608520690,82,66.8,65.81,-19.71,8.81
145,port hedland,32,CD,1608520690,74,-7.03,29.76,70.12,5.23
146,deputatskiy,100,RU,1608520690,87,69.3,139.9,-30.96,2.82
147,brumado,100,BR,1608520411,92,-14.2,-41.67,71.47,3.11
148,pastos bons,15,PR,1608520690,97,18.12,-66.26,77.0,1.01
149,buchanan,28,LR,1608520690,83,5.88,-10.05,77.83,3.09
150,nouadhibou,0,MR,1608520690,77,20.93,-17.03,60.8,11.41
151,altamont,90,US,1608520690,81,42.21,-121.74,42.8,4.16
152,provideniya,20,RU,1608520690,77,64.38,-173.3,-2.2,13.42
153,vao,3,NC,1608520690,73,-22.67,167.48,76.8,8.84
154,kulhudhuffushi,62,MV,1608520690,69,6.62,73.07,82.33,10.58
155,araouane,20,ML,1608520691,36,18.9,-3.53,57.56,11.59
156,port blair,95,CD,1608520683,72,-7.03,29.76,70.56,3.94
157,souillac,40,MU,1608520691,78,-20.52,57.52,78.8,11.41
158,lusambo,78,CD,1608520691,94,-4.97,23.45,65.32,1.86
159,inirida,56,CO,1608520691,90,3.87,-67.92,73.89,1.39
160,saskylakh,98,RU,1608520691,82,71.92,114.08,-33.83,6.08
161,kibala,0,TD,1608520691,72,9.11,18.35,62.6,4.03
162,cherskiy,0,RU,1608520691,85,68.75,161.3,-28.86,2.66
163,portland,90,US,1608520574,87,45.52,-122.68,48.99,3.04
164,hofn,91,IS,1608520691,80,64.25,-15.21,35.4,12.8
165,esperance,82,AU,1608520691,63,-33.87,121.9,64.4,12.75
166,hobart,75,AU,1608520418,45,-42.88,147.33,72.0,13.87
167,airai,100,TL,1608520692,79,-8.93,125.41,73.17,4.79
168,touros,40,BR,1608520692,78,-5.2,-35.46,78.8,10.29
169,yzeure,90,FR,1608520692,100,46.56,3.35,43.0,3.36
170,keetmanshoop,99,NA,1608520692,56,-26.58,18.13,76.62,3.98
171,bandarbeyla,42,SO,1608520692,85,9.49,50.81,74.91,20.78
172,sungaipenuh,100,ID,1608520692,49,-2.08,101.38,79.56,1.41
173,nyurba,100,RU,1608520692,85,63.28,118.33,-25.73,1.3
174,san rafael,31,ML,1608520680,25,13.3,-4.9,68.45,13.11
175,flinders,100,AU,1608520692,75,-34.58,150.86,75.99,1.99
176,sorland,100,NO,1608520692,85,67.67,12.69,45.77,35.52
177,muroto,20,JP,1608520692,39,33.28,134.15,48.2,4.7
178,katangli,48,RU,1608520692,84,51.71,143.23,1.9,9.55
179,prince rupert,90,CA,1608520692,74,52.97,-108.38,35.6,14.99
180,manono,100,CD,1608520693,96,-7.3,27.42,66.97,2.95
181,pekan,20,MY,1608520693,88,3.48,103.4,77.0,3.36
182,puerto escondido,0,ES,1608520693,93,36.59,-6.23,51.8,6.93
183,olbia,40,IT,1608520693,100,40.92,9.49,46.4,1.12
184,marienburg,4,PL,1608520693,100,54.04,19.03,37.0,12.35
185,mosquera,20,CO,1608520693,81,4.71,-74.23,51.8,2.24
186,kudahuvadhoo,99,MV,1608520693,78,2.67,72.89,80.82,8.39
187,roebourne,15,AU,1608520693,47,-20.78,117.13,93.79,16.55
188,aguada de pasajeros,0,PR,1608520693,85,18.38,-67.19,75.99,3.0
189,richards bay,90,US,1608520693,92,46.84,-95.91,30.2,10.29
190,nouna,12,BF,1608520693,25,12.73,-3.87,68.13,7.31
191,polyarnyy,75,RU,1608520693,93,69.2,33.45,35.6,8.95
192,revelstoke,90,CA,1608520693,100,50.98,-118.2,33.8,2.24
193,cap-aux-meules,75,CA,1608520693,74,47.38,-61.86,33.8,6.93
194,paita,100,PE,1608520694,82,-5.09,-81.11,69.06,9.6
195,kokopo,5,PG,1608520694,65,-4.35,152.26,86.63,8.43
196,kiama,100,AU,1608520694,83,-34.68,150.87,75.99,5.99
197,syracuse,75,IT,1608520694,93,37.09,15.28,57.2,9.17
198,sijunjung,98,ID,1608520448,60,-0.69,100.95,85.23,0.78
199,synya,9,RU,1608520694,87,65.37,58.04,-10.55,1.86
200,bezhetsk,100,RU,1608520694,99,57.79,36.7,31.41,6.91
201,ponta do sol,98,PT,1608520694,92,38.73,-28.27,60.26,29.24
202,hasaki,20,JP,1608520694,36,35.73,140.83,50.0,10.29
203,along,0,IN,1608520694,42,28.17,94.77,60.08,0.65
204,narsaq,100,GL,1608520694,68,60.92,-46.05,26.6,12.75
205,sala,20,MA,1608520694,100,34.04,-6.82,54.0,6.55
206,puerto carreno,0,ES,1608520694,93,36.59,-6.23,51.8,6.93
207,ilulissat,100,GL,1608520694,47,69.22,-51.1,15.8,16.11
208,mufulira,100,ZM,1608520694,93,-12.55,28.24,64.99,3.0
209,charters towers,1,US,1608520695,100,38.57,-83.43,36.0,4.7
210,bathsheba,75,BB,1608520695,74,13.22,-59.52,80.6,14.99
211,saldanha,82,ZA,1608520695,82,-33.01,17.94,60.8,3.36
212,quelimane,20,MZ,1608520695,88,-17.88,36.89,80.6,2.24
213,butte,1,US,1608520695,76,39.65,-121.57,48.2,3.94
214,san roque,31,ML,1608520680,25,13.3,-4.9,68.45,13.11
215,mahebourg,40,MU,1608520485,78,-20.41,57.7,78.8,11.41
216,dongsheng,11,CN,1608520695,90,39.82,109.98,16.95,7.65
217,paso de los toros,53,BO,1608520695,87,-14.43,-67.52,75.52,1.59
218,newport,100,GB,1608520695,98,51.59,-3.0,48.0,10.65
219,mana,100,GF,1608520695,89,5.66,-53.78,77.63,6.64
220,mackenzie,90,CA,1608520695,94,55.3,-123.17,32.0,8.05
221,alta floresta,36,NO,1608520695,83,69.97,23.27,36.0,23.04
222,cabo san lucas,40,BR,1608520695,65,-8.28,-35.03,78.8,9.17
223,urucara,97,BR,1608520696,91,-2.54,-57.76,76.5,0.85
224,villa bruzual,99,IT,1608520696,74,46.2,10.13,48.0,0.34
225,nivala,100,FI,1608520696,96,63.92,24.97,39.0,8.99
226,alofi,75,NU,1608520696,83,-19.06,-169.92,82.4,11.41
227,san luis,31,ML,1608520680,25,13.3,-4.9,68.45,13.11
228,salina cruz,1,US,1608520479,52,38.84,-97.61,46.4,12.75
229,grindavik,90,IS,1608520696,82,63.84,-22.43,35.6,13.87
230,tabou,4,CI,1608520696,88,4.42,-7.35,77.59,6.15
231,nioro,84,GM,1608520696,23,13.35,-15.75,69.64,5.84
232,bonga,65,ET,1608520696,64,7.28,36.23,62.49,0.67
233,peniche,97,PT,1608520696,90,39.36,-9.38,57.99,5.99
234,nago,75,JP,1608520696,59,26.59,127.98,64.4,10.29
235,padang,100,ID,1608520696,58,-0.95,100.35,85.08,1.79
236,high level,1,US,1608520696,65,33.61,-95.75,46.99,5.82
237,kathmandu,20,NP,1608520471,87,27.72,85.32,46.4,2.24
238,fayaoue,17,NC,1608520697,74,-20.65,166.53,78.91,10.25
239,marsa matruh,40,MT,1608520697,93,35.88,14.5,59.0,5.82
240,maltahohe,100,NA,1608520697,69,-24.83,16.98,70.02,9.46
241,ust-kuyga,85,RU,1608520697,80,70.02,135.6,-38.74,3.89
242,yulara,100,AU,1608520697,51,-25.24,130.99,80.6,12.75
243,evreux,100,FR,1608520697,93,49.02,1.15,46.99,12.75
244,dingle,50,PH,1608520697,79,11.0,122.67,83.75,13.47
245,cap malheureux,100,FR,1608520697,93,49.27,-1.21,51.01,12.75
246,namikupa,29,TZ,1608520697,98,-10.83,39.6,71.08,2.08
247,mayumba,77,GA,1608520698,90,-3.43,10.66,76.59,6.31
248,sovetskiy,0,RU,1608520698,94,61.36,63.58,3.67,5.1
249,udachnyy,0,RU,1608520698,65,66.42,112.4,-36.4,6.71
250,najran,0,SA,1608520698,71,17.49,44.13,55.4,1.57
251,college,75,US,1608520698,70,64.86,-147.8,-4.0,6.93
252,carnarvon,0,AU,1608520698,20,-24.87,113.63,105.8,17.22
253,killin,1,US,1608520698,93,33.61,-91.74,42.01,5.17
254,zaysan,100,KZ,1608520698,95,47.47,84.87,14.88,4.52
255,sola,3,VU,1608520698,79,-13.88,167.55,81.46,11.79
256,izhma,94,RU,1608520698,88,65.01,53.91,2.8,6.44
257,pemberton,95,CA,1608520698,100,50.32,-122.8,41.0,1.12
258,port macquarie,95,CD,1608520683,72,-7.03,29.76,70.56,3.94
259,conakry,0,GN,1608520698,76,9.54,-13.68,80.67,5.57
260,lompoc,1,US,1608520648,58,34.64,-120.46,53.6,3.22
261,orlik,92,RU,1608520698,85,52.52,99.83,6.8,3.62
262,inverell,100,AU,1608520699,92,-29.78,151.12,77.0,6.35
263,itacoatiara,80,BR,1608520699,89,-3.14,-58.44,75.74,1.41
264,lingao,78,CN,1608520699,56,19.91,109.69,61.52,11.41
265,kavieng,85,PG,1608520699,69,-2.57,150.8,84.92,3.11
266,jiayuguan,0,CN,1608520699,70,39.82,98.3,18.41,2.01
267,klyuchi,62,RU,1608520699,88,52.27,79.17,-3.42,15.21
268,dunedin,100,NZ,1608520623,90,-45.87,170.5,53.01,1.99
269,margate,62,GB,1608520699,84,51.38,1.39,48.99,3.0
270,inhambane,38,MZ,1608520699,82,-23.86,35.38,75.09,6.58
271,shushtar,0,IR,1608520699,64,32.05,48.86,52.95,2.39
272,omboue,100,GA,1608520699,90,-1.57,9.26,77.14,8.63
273,iqaluit,5,CA,1608520699,76,63.75,-68.51,-11.0,3.36
274,guerrero negro,96,MX,1608520699,68,17.67,-100.0,67.26,4.34
275,kieta,69,PG,1608520699,72,-6.22,155.63,84.74,5.53
276,tallahassee,90,US,1608520421,100,30.44,-84.28,55.4,3.22
277,san patricio,29,ML,1608520700,24,13.3,-4.9,68.97,13.73
278,bonavista,0,CA,1608520700,92,48.65,-53.11,19.4,3.36
279,yeppoon,40,AU,1608520700,41,-23.13,150.73,93.2,11.41
280,san carlos,29,ML,1608520502,24,13.3,-4.9,68.97,13.73
281,upernavik,71,GL,1608520700,84,72.79,-56.15,10.35,5.75
282,makat,99,KZ,1608520700,93,47.65,53.35,9.07,9.91
283,karratha,11,AU,1608520700,49,-20.74,116.85,93.36,19.71
284,half moon bay,0,LR,1608520700,86,6.38,-10.7,76.59,1.28
285,ostersund,7,SE,1608520700,82,63.18,14.64,39.2,10.29
286,cabedelo,0,BR,1608520700,83,-6.98,-34.83,78.8,6.93
287,wasilla,90,US,1608520576,92,61.58,-149.44,23.0,4.7
288,sept-iles,91,CA,1608520700,86,50.2,-66.38,30.2,3.36
289,bilibino,24,RU,1608520700,84,68.05,166.44,-18.11,5.19
290,east london,90,IS,1608520530,92,65.0,-15.0,28.4,3.36
291,wageningen,20,NL,1608520700,93,51.97,5.67,43.0,10.29
292,tukrah,20,LY,1608520701,69,32.53,20.58,57.79,14.61
293,sanmenxia,0,CN,1608520701,56,34.77,111.18,40.51,0.87
294,cordoba,0,AR,1608520701,77,-31.41,-64.18,70.0,5.82
295,carahue,0,CL,1608520701,87,-38.7,-73.17,51.8,4.7
296,raudeberg,99,NO,1608520701,85,61.99,5.14,44.01,22.64
297,chkalovskoye,77,RU,1608520701,89,44.84,133.04,17.08,10.67
298,bubaque,100,GW,1608520701,65,11.28,-15.83,80.06,3.38
299,flin flon,0,FR,1608520701,100,48.5,6.66,44.6,2.24
300,codrington,100,AU,1608520701,84,-38.27,141.97,57.6,10.2
301,buala,53,SB,1608520701,73,-8.14,159.59,84.31,3.04
302,mecca,0,SA,1608520701,62,21.43,39.83,71.11,1.66
303,haikou,40,CN,1608520701,63,20.05,110.34,60.8,11.18
304,neiafu,90,TO,1608520701,88,-18.65,-173.98,78.8,4.7
305,seminole,75,US,1608520648,83,28.71,-81.21,71.01,8.05
306,moose factory,90,US,1608520701,95,43.66,-110.72,32.0,3.36
307,muros,100,ES,1608520702,94,42.78,-9.06,60.01,5.99
308,kendari,79,ID,1608520579,61,-3.94,122.5,88.16,5.12
309,nagato,75,JP,1608520702,49,34.38,131.2,48.2,6.93
310,gladstone,36,AU,1608520702,58,-23.85,151.25,86.0,16.11
311,manokwari,100,ID,1608520702,82,-0.87,134.08,80.65,8.5
312,alamogordo,1,US,1608520702,25,32.9,-105.96,39.99,8.05
313,praia da vitoria,0,CV,1608520702,68,14.92,-23.51,71.6,16.11
314,geraldton,0,AU,1608520702,18,-28.77,114.6,96.8,17.22
315,cururupu,58,BR,1608520702,86,-1.83,-44.87,76.46,4.36
316,hobyo,80,SO,1608520702,77,5.35,48.53,78.78,17.9
317,vilyuysk,100,RU,1608520702,83,63.76,121.62,-32.85,2.15
318,miles city,1,US,1608520702,40,35.19,-120.7,59.0,8.39
319,vila praia de ancora,100,PT,1608520702,95,42.03,-8.16,53.01,5.99
320,beringovskiy,91,RU,1608520702,91,63.05,179.32,-7.17,15.37
321,soe,99,ID,1608520451,75,-9.86,124.28,77.79,8.01
322,san ramon,29,ML,1608520700,24,13.3,-4.9,68.97,13.73
323,nome,1,US,1608520702,75,64.5,-165.41,-18.4,3.36
324,gazanjyk,0,TM,1608520703,90,39.24,55.52,32.88,6.89
325,port moresby,95,CD,1608520683,72,-7.03,29.76,70.56,3.94
326,taoudenni,0,ML,1608520490,47,22.68,-3.98,57.38,11.92
327,north bend,100,FR,1608520704,93,50.33,3.67,43.0,8.05
328,goderich,80,CA,1608520704,74,43.75,-81.72,35.6,14.99
329,ixtapa,40,MX,1608520704,88,20.7,-105.2,71.6,2.24
330,faanui,99,PF,1608520704,68,-16.48,-151.75,80.58,2.01
331,chokurdakh,80,RU,1608520704,88,70.63,147.92,-20.36,9.17
332,inuvik,75,CA,1608520593,73,68.35,-133.72,-32.8,3.36
333,candelaria,92,PH,1608520704,80,13.93,121.42,82.99,7.0
334,necochea,0,AR,1608520704,72,-38.55,-58.74,50.85,5.46
335,oranjestad,20,AW,1608520577,74,12.52,-70.03,80.6,17.22
336,novomichurinsk,100,RU,1608520704,97,54.04,39.75,21.04,8.5
337,cagayan de tawi-tawi,78,PH,1608520704,78,6.97,118.51,83.12,12.8
338,dikson,2,RU,1608520704,83,73.51,80.55,-28.23,7.09
339,dzhalil,23,RU,1608520704,90,55.02,52.74,-3.6,13.09
340,mayo,90,US,1608520705,100,38.89,-76.51,39.99,1.81
341,vanavara,13,RU,1608520705,86,60.34,102.28,-19.3,2.84
342,kutum,8,SD,1608520705,47,14.2,24.67,50.4,3.65
343,tadine,27,NC,1608520705,65,-21.55,167.88,80.28,10.83
344,emba,2,KZ,1608520705,85,48.83,58.14,-6.14,4.21
345,pithoragarh,6,IN,1608520705,46,29.58,80.22,44.94,2.35
346,eirunepe,99,BR,1608520705,91,-6.66,-69.87,75.04,1.86
347,talnakh,67,RU,1608520705,73,69.49,88.4,-34.6,6.71
348,fortuna,90,US,1608520705,100,40.6,-124.16,52.0,3.04
349,nanortalik,98,GL,1608520705,97,60.14,-45.24,28.09,12.55
350,cutervo,67,PE,1608520705,100,-6.38,-78.82,51.57,2.01
351,broome,90,US,1608520705,92,42.25,-75.83,32.0,8.05
352,lima,20,PE,1608520506,82,-12.04,-77.03,68.0,14.99
353,tuatapere,100,NZ,1608520705,80,-46.13,167.68,59.0,8.01
354,victoria,84,HK,1608520584,59,22.29,114.16,62.01,1.01
355,copiapo,0,CL,1608520706,87,-27.37,-70.33,57.2,9.17
356,elko,1,US,1608520706,64,41.0,-115.5,39.99,3.36
357,yar-sale,0,RU,1608520706,85,66.83,70.83,-25.53,10.78
358,honiara,20,SB,1608520706,66,-9.43,159.95,89.6,6.93
359,bengkulu,53,ID,1608520706,58,-3.8,102.27,83.97,2.1
360,husavik,90,IS,1608520706,86,66.04,-17.34,33.8,17.22
361,kailua,40,US,1608520706,74,21.4,-157.74,82.4,11.41
362,terrace,90,CA,1608520706,100,54.52,-128.6,33.8,6.93
363,yatou,0,CN,1608520706,79,37.15,122.38,35.26,7.38
364,lagoa,100,PT,1608520706,86,39.05,-27.98,63.3,30.29
365,abnub,0,EG,1608520706,81,27.27,31.15,50.0,6.93
366,yashkul,100,RU,1608520706,95,46.17,45.34,29.59,14.27
367,kalabo,100,ZM,1608520706,94,-14.97,22.68,65.26,5.41
368,mpika,83,ZM,1608520706,91,-11.83,31.45,60.89,1.28
369,franklin,1,US,1608520630,85,39.97,-83.02,36.0,6.93
370,bolgar,90,RU,1608520708,84,54.95,49.07,-0.4,4.47
371,mumbwa,95,ZM,1608520708,91,-14.98,27.06,64.33,2.46
372,panguna,77,PG,1608520708,87,-6.32,155.48,78.06,2.06
373,hirado,75,JP,1608520708,45,33.36,129.55,48.2,4.7
374,santa fe,100,PH,1608520708,62,17.49,120.43,83.88,2.19
375,newcastle,90,AU,1608520448,94,-32.93,151.78,70.0,4.7
376,handan,0,CN,1608520708,59,36.6,114.47,38.52,3.38
377,olafsvik,100,IS,1608520708,86,64.89,-23.71,34.61,41.27
378,tual,100,ID,1608520708,79,-5.67,132.75,82.62,14.81
379,lanzhou,0,CN,1608520708,53,36.06,103.79,28.99,3.71
380,luderitz,79,NA,1608520708,93,-26.65,15.16,60.8,3.36
381,laureles,1,US,1608520708,87,26.11,-97.49,57.2,5.82
382,sam chuk,0,SN,1608520709,46,13.86,-15.95,69.8,9.17
383,cortez,1,US,1608520709,68,37.35,-108.59,28.0,4.7
384,calvinia,100,ZA,1608520709,30,-31.47,19.78,74.64,0.78
385,yarmouth,90,US,1608520709,86,41.71,-70.23,39.2,3.36
386,klaksvik,2,FO,1608520709,100,62.23,-6.59,39.2,3.36
387,banda aceh,38,IN,1608520709,37,25.48,80.33,57.0,3.96
388,san pedro,29,ML,1608520502,24,13.3,-4.9,68.97,13.73
389,avanigadda,57,IN,1608520709,77,16.02,80.92,68.0,4.7
390,fortuna foothills,90,US,1608520709,100,40.6,-124.16,52.0,3.31
391,sechura,100,PE,1608520709,75,-5.56,-80.82,70.86,13.65
392,qusar,87,AZ,1608520709,89,41.43,48.43,33.24,4.34
393,naryan-mar,97,RU,1608520709,93,67.67,53.09,4.8,10.47
394,cayenne,20,GF,1608520710,100,4.93,-52.33,77.0,6.78
395,tura,0,IN,1608520710,59,25.52,90.22,66.29,1.01
396,chapais,90,CA,1608520710,92,49.78,-74.85,24.8,12.75
397,mehamn,100,NO,1608520710,92,71.04,27.85,40.41,27.49
398,ipixuna,0,BR,1608520710,94,-1.76,-48.8,75.2,4.7
399,kalispell,1,US,1608520710,69,48.2,-114.31,39.0,5.82
400,ivanovka,90,KG,1608520710,92,42.89,75.08,17.6,2.24
401,doka,0,SD,1608520710,53,13.52,35.77,68.76,11.39
402,benjamin constant,75,US,1608520710,74,40.1,-111.73,37.0,3.36
403,sembakung,100,ID,1608520710,67,3.82,117.25,88.47,1.77
404,singaraja,100,ID,1608520710,57,-8.11,115.09,86.23,5.23
405,vyyezdnoye,95,RU,1608520710,96,55.38,43.79,12.31,8.61
406,florida,90,US,1608520710,93,28.75,-82.5,66.2,7.23
407,alenquer,0,BR,1608520710,94,-1.94,-54.74,75.2,2.24
408,sencha,86,UA,1608520710,97,50.25,33.35,25.52,5.37
409,manuk mangkaw,56,ID,1608520710,58,-7.9,111.5,85.84,6.15
410,biak,100,ID,1608520711,71,-0.91,122.88,83.03,1.41
411,wanaka,100,NZ,1608520711,75,-44.7,169.15,57.88,5.46
412,westport,20,US,1608520711,93,41.14,-73.36,34.0,1.7
413,laramie,40,US,1608520711,59,41.31,-105.59,37.0,3.36
414,mareeba,34,AU,1608520711,55,-17.0,145.43,93.0,9.17
415,thinadhoo,61,MV,1608520711,74,0.53,72.93,82.49,9.46
416,portobelo,34,PA,1608520711,99,9.55,-79.65,79.0,5.99
417,trairi,18,BR,1608520711,79,-3.28,-39.27,78.69,8.95
418,tiznit,0,MA,1608520711,61,29.58,-9.5,54.55,1.68
419,eregli,99,TR,1608520711,78,37.51,34.05,34.27,1.01
420,carballo,75,ES,1608520711,93,43.21,-8.69,59.0,12.75
421,kathu,20,TH,1608520711,65,7.92,98.33,82.99,11.41
422,dong hoi,16,CM,1608520712,97,4.89,12.01,68.56,2.84
423,griffith,1,US,1608520712,83,41.53,-87.42,34.0,3.36
424,marfino,90,RU,1608520712,98,55.7,37.38,33.01,8.95
425,clyde river,0,US,1608520712,84,41.3,-82.98,37.0,11.34
426,las cruces,0,PL,1608520589,3,49.74,19.43,32.0,11.01
427,sao jose da coroa grande,0,IN,1608520637,28,20.51,76.21,63.81,3.09
428,kimparana,15,ML,1608520712,25,12.83,-4.92,68.52,11.1
429,tecoanapa,74,MX,1608520712,73,16.52,-98.75,78.06,2.59
430,bam,0,IR,1608520712,75,29.11,58.36,42.44,1.14
431,zhezkazgan,0,KZ,1608520712,89,47.8,67.71,-11.0,4.25
432,saqqez,0,IR,1608520712,87,36.25,46.27,28.85,1.45
433,wau,86,SS,1608520712,29,7.7,28.0,68.85,6.08
434,labuhan,93,ID,1608520712,66,-6.88,112.21,84.15,7.61
435,sao joao da barra,0,IN,1608520713,28,20.51,76.21,63.81,3.09
436,sao joao do piaui,0,IN,1608520713,28,20.51,76.21,63.81,3.09
437,udankudi,20,IN,1608520713,83,8.43,78.02,78.8,5.82
438,arlit,0,NE,1608520713,24,18.74,7.39,68.68,7.18
439,bereda,100,ES,1608520713,98,43.27,-7.54,55.0,17.0
440,ola,50,RU,1608520713,85,59.58,151.28,-8.12,11.61
441,ocala,90,US,1608520713,100,29.19,-82.14,66.2,6.93
442,ekhabi,100,RU,1608520713,88,53.51,142.97,-5.01,12.35
443,longyan,57,CN,1608520437,53,25.11,117.02,60.01,4.16
444,praia,0,CV,1608520702,68,14.92,-23.51,71.6,16.11
445,norman wells,1,US,1608520537,62,35.22,-97.44,44.01,5.82
446,oktyabrskoye,100,RU,1608520713,100,43.06,44.74,28.4,8.95
447,picota,40,PE,1608520713,69,-6.92,-76.33,80.6,2.24
448,terney,84,RU,1608520713,83,45.05,136.61,18.37,8.41
449,trincomalee,89,LK,1608520713,79,8.57,81.23,79.72,18.99
450,coihaique,75,CL,1608520713,54,-45.58,-72.07,55.4,10.29
451,prainha,99,BR,1608520714,94,-1.8,-53.48,74.32,3.06
452,itaituba,100,BR,1608520714,95,-4.28,-55.98,75.76,2.08
453,mezen,100,RU,1608520714,98,65.85,44.24,23.52,7.85
454,anadyr,20,RU,1608520714,75,64.75,177.48,-14.01,6.71
455,morro bay,23,EC,1608520714,81,-2.63,-80.33,74.21,8.88
456,zhicheng,0,CN,1608520714,52,30.3,111.5,47.05,2.75
457,port keats,32,CD,1608520684,74,-7.03,29.76,70.12,5.23
458,huicungo,96,PE,1608520714,86,-7.28,-76.8,73.76,2.08
459,inhapim,99,BR,1608520714,94,-19.55,-42.12,69.6,2.75
460,coquimbo,0,CL,1608520494,82,-29.95,-71.34,57.2,3.36
461,kurilsk,100,RU,1608520714,92,45.23,147.88,24.6,17.83
462,nantucket,90,US,1608520581,87,41.28,-70.1,42.8,5.82
463,havre-saint-pierre,90,CA,1608520714,79,50.23,-63.6,28.4,4.7
464,akdepe,90,TM,1608520714,68,42.06,59.38,30.2,13.87
465,talcahuano,0,CL,1608520714,72,-36.72,-73.12,59.0,10.29
466,san juan,29,ML,1608520610,24,13.3,-4.9,68.97,13.73
467,coahuayana,75,MX,1608520714,73,18.73,-103.68,73.4,8.05
468,balao,100,EC,1608520715,82,-2.92,-79.82,74.79,4.34
469,aksu,9,CN,1608520715,86,41.12,80.26,17.85,1.68
470,yuzhno-kurilsk,86,RU,1608520715,89,44.03,145.86,25.72,23.44
471,turayf,0,SA,1608520715,93,31.67,38.66,44.6,11.41
472,khani,97,GE,1608520715,81,41.96,42.96,42.8,2.24
473,adrar,0,MR,1608520715,38,20.5,-10.07,56.44,12.15
474,taonan,0,CN,1608520715,72,45.33,122.78,22.6,9.08
475,port hardy,32,CD,1608520684,74,-7.03,29.76,70.12,5.23
476,caravelas,67,BR,1608520715,86,-17.71,-39.25,77.05,8.93
477,lethem,91,GY,1608520715,76,3.38,-59.8,79.11,9.95
478,tiksi,100,RU,1608520715,89,71.69,128.87,-16.78,11.88
479,xuddur,0,SO,1608520715,72,4.12,43.89,71.53,17.07
480,mocuba,52,MZ,1608520715,95,-16.84,36.99,73.58,2.13
481,bontang,97,ID,1608520715,67,0.13,117.5,85.41,7.43
482,nalut,75,LY,1608520715,76,30.33,10.85,50.58,6.8
483,osoyoos,100,CA,1608520715,78,49.03,-119.45,33.8,1.12
484,kribi,86,CM,1608520716,86,2.95,9.92,78.96,5.7
485,tromso,75,NO,1608520716,70,69.65,18.96,42.8,32.21
486,carauari,94,BR,1608520500,94,-4.88,-66.9,74.34,1.7
487,trelew,12,AR,1608520716,44,-43.25,-65.31,65.37,16.62
488,isangel,75,VU,1608520716,83,-19.55,169.27,80.6,5.82
489,axim,12,GH,1608520716,86,4.87,-2.24,78.39,5.3
490,sistranda,75,NO,1608520716,61,63.73,8.83,46.4,9.17
491,kuantan,20,MY,1608520716,88,3.81,103.33,77.0,3.36
492,cockburn town,90,AU,1608520716,88,-32.08,141.0,64.4,5.82
493,mount isa,99,GB,1608520716,93,53.66,-1.85,41.0,1.01
494,sakaiminato,75,JP,1608520716,75,35.55,133.23,46.4,10.29
495,sarkand,96,KZ,1608520716,92,45.41,79.92,15.3,3.06
496,juneau,90,US,1608520577,88,58.3,-134.42,35.6,12.75
497,northport,20,US,1608520717,93,33.23,-87.58,52.0,2.53
498,jabinyanah,99,TN,1608520717,88,35.03,10.91,56.91,18.52
499,yanam,20,IN,1608520575,82,16.73,82.22,68.0,5.82
500,kafue,0,ZM,1608520717,100,-15.77,28.18,68.0,1.81
501,saint-joseph,0,RE,1608520717,65,-21.37,55.62,79.0,2.24
502,turukhansk,100,RU,1608520717,87,65.82,87.98,-17.55,11.63
503,san quintin,29,ML,1608520502,24,13.3,-4.9,68.97,13.73
504,kadoshkino,0,RU,1608520717,94,54.03,44.42,4.24,6.87
505,tabuk,100,PH,1608520717,87,17.42,121.44,73.69,2.19
506,gbarnga,29,LR,1608520717,97,7.0,-9.47,70.75,0.85
507,bur gabo,89,DK,1608520717,95,56.37,8.43,42.01,13.38
508,chabahar,0,IR,1608520717,87,25.29,60.64,57.2,2.24
509,havoysund,100,NO,1608520717,75,71.0,24.66,42.8,19.46
510,xinqing,100,CN,1608520717,88,48.23,129.5,7.68,8.16
511,khangarh,20,PK,1608520717,87,29.92,71.16,46.4,1.23
512,porto santo,90,PT,1608520501,93,41.15,-8.61,57.2,20.8
513,kinsale,75,IE,1608520718,100,51.71,-8.53,48.0,10.29
514,takhatgarh,25,IN,1608520718,33,25.33,73.0,60.01,3.38
515,goure,0,NE,1608520718,25,13.98,10.27,69.01,4.0
516,toba,53,JP,1608520718,64,34.48,136.85,46.99,5.99
517,tamiahua,92,MX,1608520718,75,21.27,-97.45,70.97,6.29
518,yerbogachen,0,RU,1608520718,84,61.28,108.01,-25.6,5.35
519,mamlyutka,0,KZ,1608520718,60,54.94,68.54,5.0,22.37
520,lahti,90,RU,1608520718,94,59.99,30.16,34.0,6.71
521,edd,7,ER,1608520718,64,13.93,41.69,78.28,12.12
522,pietarsaari,90,FI,1608520718,93,63.65,22.68,44.01,13.87
523,san cristobal,29,ML,1608520502,24,13.3,-4.9,68.97,13.73
524,tazovskiy,92,RU,1608520718,84,67.47,78.7,-31.14,9.31
525,cam ranh,0,AR,1608520718,37,-38.98,-67.82,71.6,3.36
526,nushki,0,PK,1608520718,59,29.55,66.02,44.15,1.01
527,derzhavinsk,8,KZ,1608520719,85,51.1,66.32,-9.56,10.0
528,catuday,100,PH,1608520719,73,16.29,119.81,81.36,13.35
529,vestmanna,27,FO,1608520719,100,62.16,-7.17,39.2,3.36
530,grand gaube,1,US,1608520458,92,38.88,-109.5,21.2,3.36
531,camapua,56,BR,1608520719,57,-19.53,-54.04,79.57,2.13
532,mega,0,ET,1608520719,87,4.05,38.3,59.45,8.99
533,ust-nera,100,RU,1608520719,75,64.57,143.2,-28.97,4.25
534,koster,53,ZA,1608520719,92,-25.86,26.9,61.21,5.12
535,galle,100,LK,1608520719,87,6.04,80.22,76.37,2.98
536,rawson,38,AR,1608520719,47,-43.3,-65.1,65.08,18.45
537,afyonkarahisar,93,TR,1608520719,85,38.75,30.67,33.4,1.32
538,gramoteino,99,RU,1608520719,93,54.54,86.38,4.33,9.57
539,doha,0,QA,1608520540,63,25.29,51.53,64.4,6.93
540,dukat,100,RU,1608520719,84,62.55,155.55,-26.72,3.38
541,evensk,100,RU,1608520719,86,61.95,159.23,3.97,17.34
542,atambua,100,ID,1608520519,73,-9.11,124.89,82.27,9.19
543,sambava,75,MG,1608520720,87,-14.27,50.17,76.05,8.01
544,lotoshino,100,RU,1608520720,96,56.23,35.64,33.42,7.05
545,wellington,100,NZ,1608520720,87,-41.29,174.78,64.0,10.29
546,tuymazy,7,RU,1608520720,87,54.61,53.71,-5.39,8.16
547,kaeo,100,NZ,1608520720,63,-35.1,173.78,73.99,5.01
548,jishou,0,CN,1608520720,51,28.32,109.72,48.7,0.96
549,lukovetskiy,90,RU,1608520720,94,64.3,41.92,33.8,6.71
550,kutoarjo,95,ID,1608520720,68,-7.72,109.91,83.91,4.59
551,gravelbourg,0,CA,1608520720,68,49.88,-106.55,30.2,17.22
552,san policarpo,29,ML,1608520610,24,13.3,-4.9,68.97,13.73
553,mamallapuram,40,IN,1608520720,83,12.63,80.17,77.0,2.24
554,uyuni,38,BO,1608520720,46,-20.46,-66.83,55.22,7.58
555,chiradzulu,93,MW,1608520721,94,-15.67,35.14,65.59,2.44
556,santa isabel do rio negro,100,PH,1608520708,62,17.49,120.43,83.88,2.19
557,yibin,0,CN,1608520721,58,28.77,104.62,48.99,2.3
558,aanekoski,90,FI,1608520721,100,62.69,25.82,41.0,9.17
